<?xml version="1.0" encoding="UTF-8"?><gpx xmlns="http://www.topografix.com/GPX/1/1" xmlns:gpxtpx="http://www.garmin.com/xmlschemas/TrackPointExtension/v1" xmlns:xsi="http://www.w3.org/2001/XMLSchema-instance" xmlns:gpxx="http://www.garmin.com/xmlschemas/GpxExtensions/v3" xsi:schemaLocation="http://www.topografix.com/GPX/1/1 http://www.topografix.com/GPX/1/1/gpx.xsd http://www.garmin.com/xmlschemas/GpxExtensions/v3 http://www.garmin.com/xmlschemas/GpxExtensionsv3.xsd http://www.garmin.com/xmlschemas/TrackPointExtension/v1 http://www.garmin.com/xmlschemas/TrackPointExtensionv1.xsd" version="1.1">
  <metadata>
    <name>Patruyeros sendero 21 octubre 2025</name>
    <copyright author="Tracklia app (https://play.google.com/store/apps/details?id=app.tracklia)"/>
    <time>2025-10-30T01:56:21Z</time>
  </metadata>
  <wpt lat="-3.7879" lon="-70.356083">
    <time>2025-10-21T19:14:02Z</time>
    <name>Inicio Sendero</name>
    <desc/>
  </wpt>
  <wpt lat="-3.787385" lon="-70.356159">
    <time>2025-10-21T19:18:13Z</time>
    <name>Sendero patruyeros</name>
    <desc>Reforestación con frutales y madera</desc>
  </wpt>
  <wpt lat="-3.787317" lon="-70.355707">
    <time>2025-10-21T19:19:30Z</time>
    <name>Canela</name>
    <desc>Maderable</desc>
  </wpt>
  <wpt lat="-3.787281" lon="-70.355629">
    <time>2025-10-21T19:19:52Z</time>
    <name>Cahuari</name>
    <desc>Palo de arco</desc>
  </wpt>
  <wpt lat="-3.787257" lon="-70.355637">
    <time>2025-10-21T19:20:22Z</time>
    <name>Palillov</name>
    <desc>Fruto comestible</desc>
  </wpt>
  <wpt lat="-3.78724" lon="-70.355573">
    <time>2025-10-21T19:21:47Z</time>
    <name>Manzanita</name>
    <desc>Comida aves</desc>
  </wpt>
  <wpt lat="-3.787164" lon="-70.355524">
    <time>2025-10-21T19:22:13Z</time>
    <name>Quebrada</name>
    <desc>Quebrada</desc>
  </wpt>
  <wpt lat="-3.787154" lon="-70.355515">
    <time>2025-10-21T19:25:00Z</time>
    <name>Árbol del venado o papaya brava</name>
    <desc>Tiene fruta que el venado consume, se tumba para sacar mojojoy</desc>
  </wpt>
  <wpt lat="-3.787081" lon="-70.355615">
    <time>2025-10-21T19:26:30Z</time>
    <name>Siringarana</name>
    <desc>Árbol caucho</desc>
  </wpt>
  <wpt lat="-3.787054" lon="-70.355408">
    <time>2025-10-21T19:28:04Z</time>
    <name>Ruta quebrada</name>
    <desc/>
  </wpt>
  <wpt lat="-3.787043" lon="-70.355411">
    <time>2025-10-21T19:28:33Z</time>
    <name>Renaco</name>
    <desc>Comida aves</desc>
  </wpt>
  <wpt lat="-3.787047" lon="-70.355427">
    <time>2025-10-21T19:29:03Z</time>
    <name>Oje</name>
    <desc>Comida peces</desc>
  </wpt>
  <wpt lat="-3.786995" lon="-70.355422">
    <time>2025-10-21T19:30:16Z</time>
    <name>Yari na</name>
    <desc>Medicinal semilla agua. Para los ojos</desc>
  </wpt>
  <wpt lat="-3.786982" lon="-70.355425">
    <time>2025-10-21T19:33:04Z</time>
    <name>Bacaba</name>
    <desc>Fruto comestible</desc>
  </wpt>
  <wpt lat="-3.787185" lon="-70.355227">
    <time>2025-10-21T19:33:46Z</time>
    <name>Palma de chambira</name>
    <desc>Fibra</desc>
  </wpt>
  <wpt lat="-3.787173" lon="-70.355205">
    <time>2025-10-21T19:36:55Z</time>
    <name>Ceiba</name>
    <desc>Maderable</desc>
  </wpt>
  <wpt lat="-3.787108" lon="-70.35511">
    <time>2025-10-21T19:41:58Z</time>
    <name>Bijao</name>
    <desc>Bijao o platanillo</desc>
  </wpt>
  <wpt lat="-3.78689" lon="-70.355029">
    <time>2025-10-21T19:42:20Z</time>
    <name>Bacaba</name>
    <desc/>
  </wpt>
  <wpt lat="-3.786838" lon="-70.354985">
    <time>2025-10-21T19:47:48Z</time>
    <name>Sendero</name>
    <desc/>
  </wpt>
  <wpt lat="-3.786618" lon="-70.354745">
    <time>2025-10-21T19:50:05Z</time>
    <name>Árbol de topa o balso</name>
    <desc>Artesanías y semillas alimentos peces</desc>
  </wpt>
  <wpt lat="-3.786654" lon="-70.354692">
    <time>2025-10-21T19:54:10Z</time>
    <name>Identificar plantas</name>
    <desc>Flores rojizas naranja</desc>
  </wpt>
  <wpt lat="-3.786336" lon="-70.35443">
    <time>2025-10-21T19:54:24Z</time>
    <name>Yarina</name>
    <desc>Palma</desc>
  </wpt>
  <wpt lat="-3.785919" lon="-70.354463">
    <time>2025-10-21T20:01:40Z</time>
    <name>Topa</name>
    <desc>Balso</desc>
  </wpt>
  <wpt lat="-3.785773" lon="-70.354508">
    <time>2025-10-21T20:05:57Z</time>
    <name>Yucal</name>
    <desc>Chagra</desc>
  </wpt>
  <wpt lat="-3.78511" lon="-70.354198">
    <time>2025-10-21T20:09:11Z</time>
    <name>Sendero</name>
    <desc/>
  </wpt>
  <wpt lat="-3.784983" lon="-70.354307">
    <time>2025-10-21T20:10:30Z</time>
    <name>Nos perdimos</name>
    <desc/>
  </wpt>
  <wpt lat="-3.784995" lon="-70.354415">
    <time>2025-10-21T20:12:26Z</time>
    <name>Platanillo</name>
    <desc>Heliconia</desc>
  </wpt>
  <wpt lat="-3.785043" lon="-70.354451">
    <time>2025-10-21T20:12:50Z</time>
    <name>Piña brava</name>
    <desc/>
  </wpt>
  <wpt lat="-3.785095" lon="-70.354453">
    <time>2025-10-21T20:15:08Z</time>
    <name>Identificar</name>
    <desc>Fruto alargado</desc>
  </wpt>
  <wpt lat="-3.785169" lon="-70.354512">
    <time>2025-10-21T20:16:04Z</time>
    <name>Platanillo variedad</name>
    <desc/>
  </wpt>
  <wpt lat="-3.785368" lon="-70.354417">
    <time>2025-10-21T20:16:46Z</time>
    <name>Hoja de chulo</name>
    <desc>Medicinal para bañar</desc>
  </wpt>
  <wpt lat="-3.78546" lon="-70.354832">
    <time>2025-10-21T20:22:51Z</time>
    <name>Sendero</name>
    <desc/>
  </wpt>
  <wpt lat="-3.785352" lon="-70.355014">
    <time>2025-10-21T20:30:44Z</time>
    <name>Yarumo</name>
    <desc/>
  </wpt>
  <wpt lat="-3.785328" lon="-70.355201">
    <time>2025-10-21T20:31:40Z</time>
    <name>Renaco</name>
    <desc/>
  </wpt>
  <wpt lat="-3.785242" lon="-70.355326">
    <time>2025-10-21T20:32:54Z</time>
    <name>Heliconia</name>
    <desc>Rosada</desc>
  </wpt>
  <wpt lat="-3.785182" lon="-70.355556">
    <time>2025-10-21T20:34:32Z</time>
    <name>Oje</name>
    <desc>Madera árbol</desc>
  </wpt>
  <wpt lat="-3.785505" lon="-70.356089">
    <time>2025-10-21T20:38:13Z</time>
    <name>Pona</name>
    <desc/>
  </wpt>
  <wpt lat="-3.785854" lon="-70.356161">
    <time>2025-10-21T20:39:29Z</time>
    <name>Bijao</name>
    <desc>Con floración</desc>
  </wpt>
  <wpt lat="-3.786552" lon="-70.356531">
    <time>2025-10-21T20:43:23Z</time>
    <name>Fin llegada sendero chagra</name>
    <desc/>
  </wpt>
  <wpt lat="-3.786973" lon="-70.357307">
    <time>2025-10-21T20:46:17Z</time>
    <name>Calle principal</name>
    <desc/>
  </wpt>
</gpx>
